[
    {
        "city": "Dubai", 
        "lat": "25.2697", 
        "lng": "55.3094", 
        "country": "United Arab Emirates", 
        "iso2": "AE", 
        "admin_name": "Dubayy", 
        "capital": "admin", 
        "population": "2502715", 
        "population_proper": "2502715"
    }, 
    {
        "city": "Sharjah", 
        "lat": "25.3575", 
        "lng": "55.3919", 
        "country": "United Arab Emirates", 
        "iso2": "AE", 
        "admin_name": "Ash Sh\u0101riqah", 
        "capital": "admin", 
        "population": "1400000", 
        "population_proper": "1400000"
    }, 
    {
        "city": "Abu Dhabi", 
        "lat": "24.4781", 
        "lng": "54.3686", 
        "country": "United Arab Emirates", 
        "iso2": "AE", 
        "admin_name": "Ab\u016b Z\u0327aby", 
        "capital": "primary", 
        "population": "1000000", 
        "population_proper": "1000000"
    }, 
    {
        "city": "Al \u2018Ayn", 
        "lat": "24.2075", 
        "lng": "55.7447", 
        "country": "United Arab Emirates", 
        "iso2": "AE", 
        "admin_name": "Ab\u016b Z\u0327aby", 
        "capital": "", 
        "population": "766936", 
        "population_proper": "766936"
    }, 
    {
        "city": "\u2018Ajm\u0101n", 
        "lat": "25.3994", 
        "lng": "55.4797", 
        "country": "United Arab Emirates", 
        "iso2": "AE", 
        "admin_name": "\u2018Ajm\u0101n", 
        "capital": "admin", 
        "population": "238119", 
        "population_proper": "238119"
    }, 
    {
        "city": "Ra\u2019s al Khaymah", 
        "lat": "25.7915", 
        "lng": "55.9428", 
        "country": "United Arab Emirates", 
        "iso2": "AE", 
        "admin_name": "Ra\u2019s al Khaymah", 
        "capital": "admin", 
        "population": "160849", 
        "population_proper": "115949"
    }, 
    {
        "city": "Al Fujayrah", 
        "lat": "25.1308", 
        "lng": "56.3347", 
        "country": "United Arab Emirates", 
        "iso2": "AE", 
        "admin_name": "Al Fujayrah", 
        "capital": "admin", 
        "population": "93673", 
        "population_proper": "93673"
    }, 
    {
        "city": "Umm al Qaywayn", 
        "lat": "25.5653", 
        "lng": "55.5533", 
        "country": "United Arab Emirates", 
        "iso2": "AE", 
        "admin_name": "Umm al Qaywayn", 
        "capital": "admin", 
        "population": "44411", 
        "population_proper": "32651"
    }, 
    {
        "city": "Mad\u012bnat Z\u0101yid", 
        "lat": "23.6522", 
        "lng": "53.6536", 
        "country": "United Arab Emirates", 
        "iso2": "AE", 
        "admin_name": "Ab\u016b Z\u0327aby", 
        "capital": "", 
        "population": "29095", 
        "population_proper": "29095"
    }, 
    {
        "city": "Shar\u012byah", 
        "lat": "24.8151", 
        "lng": "56.0986", 
        "country": "United Arab Emirates", 
        "iso2": "AE", 
        "admin_name": "\u2018Ajm\u0101n", 
        "capital": "", 
        "population": "", 
        "population_proper": ""
    }, 
    {
        "city": "\u1e28a\u015fat al Bid\u012byah", 
        "lat": "25.3273", 
        "lng": "55.9799", 
        "country": "United Arab Emirates", 
        "iso2": "AE", 
        "admin_name": "Ash Sh\u0101riqah", 
        "capital": "", 
        "population": "", 
        "population_proper": ""
    }, 
    {
        "city": "Ma\u015ff\u016b\u0163", 
        "lat": "24.8109", 
        "lng": "56.1066", 
        "country": "United Arab Emirates", 
        "iso2": "AE", 
        "admin_name": "\u2018Ajm\u0101n", 
        "capital": "", 
        "population": "", 
        "population_proper": ""
    }, 
    {
        "city": "\u2018\u016ad al Bay\u1e11\u0101\u2019", 
        "lat": "25.0162", 
        "lng": "55.4553", 
        "country": "United Arab Emirates", 
        "iso2": "AE", 
        "admin_name": "Dubayy", 
        "capital": "", 
        "population": "", 
        "population_proper": ""
    }, 
    {
        "city": "Qaray\u0163aysah", 
        "lat": "24.8708", 
        "lng": "55.5491", 
        "country": "United Arab Emirates", 
        "iso2": "AE", 
        "admin_name": "Dubayy", 
        "capital": "", 
        "population": "", 
        "population_proper": ""
    }, 
    {
        "city": "Margham", 
        "lat": "24.8987", 
        "lng": "55.6240", 
        "country": "United Arab Emirates", 
        "iso2": "AE", 
        "admin_name": "Dubayy", 
        "capital": "", 
        "population": "", 
        "population_proper": ""
    }, 
    {
        "city": "Qimah", 
        "lat": "24.7867", 
        "lng": "56.1414", 
        "country": "United Arab Emirates", 
        "iso2": "AE", 
        "admin_name": "Dubayy", 
        "capital": "", 
        "population": "", 
        "population_proper": ""
    }, 
    {
        "city": "Hunaywah", 
        "lat": "25.1947", 
        "lng": "55.5945", 
        "country": "United Arab Emirates", 
        "iso2": "AE", 
        "admin_name": "Dubayy", 
        "capital": "", 
        "population": "", 
        "population_proper": ""
    }, 
    {
        "city": "\u1e28ayl", 
        "lat": "24.7892", 
        "lng": "56.1146", 
        "country": "United Arab Emirates", 
        "iso2": "AE", 
        "admin_name": "Dubayy", 
        "capital": "", 
        "population": "", 
        "population_proper": ""
    }, 
    {
        "city": "\u015eufayr\u012b", 
        "lat": "24.8117", 
        "lng": "56.1265", 
        "country": "United Arab Emirates", 
        "iso2": "AE", 
        "admin_name": "\u2018Ajm\u0101n", 
        "capital": "", 
        "population": "", 
        "population_proper": ""
    }, 
    {
        "city": "\u2018Urq\u016bb Juwayza", 
        "lat": "24.9333", 
        "lng": "55.4667", 
        "country": "United Arab Emirates", 
        "iso2": "AE", 
        "admin_name": "Dubayy", 
        "capital": "", 
        "population": "", 
        "population_proper": ""
    }, 
    {
        "city": "Ferij al Muhadham", 
        "lat": "25.2875", 
        "lng": "55.3175", 
        "country": "United Arab Emirates", 
        "iso2": "AE", 
        "admin_name": "Dubayy", 
        "capital": "", 
        "population": "", 
        "population_proper": ""
    }, 
    {
        "city": "Al Faq\u2018", 
        "lat": "24.7102", 
        "lng": "55.6218", 
        "country": "United Arab Emirates", 
        "iso2": "AE", 
        "admin_name": "Dubayy", 
        "capital": "", 
        "population": "", 
        "population_proper": ""
    }, 
    {
        "city": "\u1e28att\u0101", 
        "lat": "24.8007", 
        "lng": "56.1273", 
        "country": "United Arab Emirates", 
        "iso2": "AE", 
        "admin_name": "Dubayy", 
        "capital": "", 
        "population": "", 
        "population_proper": ""
    }, 
    {
        "city": "Al Lusayl\u012b", 
        "lat": "24.9314", 
        "lng": "55.4753", 
        "country": "United Arab Emirates", 
        "iso2": "AE", 
        "admin_name": "Dubayy", 
        "capital": "", 
        "population": "", 
        "population_proper": ""
    }, 
    {
        "city": "War\u012bs\u0101n", 
        "lat": "25.1674", 
        "lng": "55.4071", 
        "country": "United Arab Emirates", 
        "iso2": "AE", 
        "admin_name": "Dubayy", 
        "capital": "", 
        "population": "", 
        "population_proper": ""
    }, 
    {
        "city": "Mu\u1e11ayf\u012b", 
        "lat": "25.3617", 
        "lng": "56.3447", 
        "country": "United Arab Emirates", 
        "iso2": "AE", 
        "admin_name": "Ash Sh\u0101riqah", 
        "capital": "", 
        "population": "", 
        "population_proper": ""
    }, 
    {
        "city": "L\u016blayyah", 
        "lat": "25.3926", 
        "lng": "56.3546", 
        "country": "United Arab Emirates", 
        "iso2": "AE", 
        "admin_name": "Ash Sh\u0101riqah", 
        "capital": "", 
        "population": "", 
        "population_proper": ""
    }, 
    {
        "city": "Al Jaz\u012brah", 
        "lat": "25.3500", 
        "lng": "55.3667", 
        "country": "United Arab Emirates", 
        "iso2": "AE", 
        "admin_name": "Ash Sh\u0101riqah", 
        "capital": "", 
        "population": "", 
        "population_proper": ""
    }, 
    {
        "city": "W\u0101d\u012b Sh\u012b", 
        "lat": "25.3500", 
        "lng": "56.3167", 
        "country": "United Arab Emirates", 
        "iso2": "AE", 
        "admin_name": "Ash Sh\u0101riqah", 
        "capital": "", 
        "population": "", 
        "population_proper": ""
    }, 
    {
        "city": "Khawr Fakk\u0101n", 
        "lat": "25.3313", 
        "lng": "56.3420", 
        "country": "United Arab Emirates", 
        "iso2": "AE", 
        "admin_name": "Ash Sh\u0101riqah", 
        "capital": "", 
        "population": "", 
        "population_proper": ""
    }, 
    {
        "city": "Ash Shu\u2018ayb", 
        "lat": "24.7471", 
        "lng": "55.8163", 
        "country": "United Arab Emirates", 
        "iso2": "AE", 
        "admin_name": "Ash Sh\u0101riqah", 
        "capital": "", 
        "population": "", 
        "population_proper": ""
    }, 
    {
        "city": "\u1e28iy\u0101wah", 
        "lat": "25.3604", 
        "lng": "56.3477", 
        "country": "United Arab Emirates", 
        "iso2": "AE", 
        "admin_name": "Ash Sh\u0101riqah", 
        "capital": "", 
        "population": "", 
        "population_proper": ""
    }, 
    {
        "city": "Ar Rufay\u015fah", 
        "lat": "25.3452", 
        "lng": "56.3225", 
        "country": "United Arab Emirates", 
        "iso2": "AE", 
        "admin_name": "Ash Sh\u0101riqah", 
        "capital": "", 
        "population": "", 
        "population_proper": ""
    }, 
    {
        "city": "Raf\u0101\u2018", 
        "lat": "25.3470", 
        "lng": "56.3501", 
        "country": "United Arab Emirates", 
        "iso2": "AE", 
        "admin_name": "Ash Sh\u0101riqah", 
        "capital": "", 
        "population": "", 
        "population_proper": ""
    }, 
    {
        "city": "Sh\u012bs", 
        "lat": "25.2914", 
        "lng": "56.2455", 
        "country": "United Arab Emirates", 
        "iso2": "AE", 
        "admin_name": "Ash Sh\u0101riqah", 
        "capital": "", 
        "population": "", 
        "population_proper": ""
    }, 
    {
        "city": "Na\u1e29wah", 
        "lat": "25.2733", 
        "lng": "56.2852", 
        "country": "United Arab Emirates", 
        "iso2": "AE", 
        "admin_name": "Ash Sh\u0101riqah", 
        "capital": "", 
        "population": "", 
        "population_proper": ""
    }, 
    {
        "city": "Zub\u0101rah", 
        "lat": "25.4049", 
        "lng": "56.3597", 
        "country": "United Arab Emirates", 
        "iso2": "AE", 
        "admin_name": "Al Fujayrah", 
        "capital": "", 
        "population": "", 
        "population_proper": ""
    }, 
    {
        "city": "Al \u1e28amr\u012byah", 
        "lat": "25.4782", 
        "lng": "55.5338", 
        "country": "United Arab Emirates", 
        "iso2": "AE", 
        "admin_name": "Ash Sh\u0101riqah", 
        "capital": "", 
        "population": "", 
        "population_proper": ""
    }, 
    {
        "city": "Adh Dhayd", 
        "lat": "25.2881", 
        "lng": "55.8816", 
        "country": "United Arab Emirates", 
        "iso2": "AE", 
        "admin_name": "Ash Sh\u0101riqah", 
        "capital": "", 
        "population": "", 
        "population_proper": ""
    }, 
    {
        "city": "Al \u2018Awdah", 
        "lat": "25.3807", 
        "lng": "56.3092", 
        "country": "United Arab Emirates", 
        "iso2": "AE", 
        "admin_name": "Ash Sh\u0101riqah", 
        "capital": "", 
        "population": "", 
        "population_proper": ""
    }, 
    {
        "city": "Qidfa\u2018", 
        "lat": "25.3043", 
        "lng": "56.3703", 
        "country": "United Arab Emirates", 
        "iso2": "AE", 
        "admin_name": "Ash Sh\u0101riqah", 
        "capital": "", 
        "population": "", 
        "population_proper": ""
    }, 
    {
        "city": "Mu\u2018tari\u1e11ah", 
        "lat": "25.5084", 
        "lng": "56.1105", 
        "country": "United Arab Emirates", 
        "iso2": "AE", 
        "admin_name": "Al Fujayrah", 
        "capital": "", 
        "population": "", 
        "population_proper": ""
    }, 
    {
        "city": "Theeb", 
        "lat": "25.2450", 
        "lng": "56.3421", 
        "country": "United Arab Emirates", 
        "iso2": "AE", 
        "admin_name": "Al Fujayrah", 
        "capital": "", 
        "population": "", 
        "population_proper": ""
    }, 
    {
        "city": "\u2018Uqayr", 
        "lat": "25.2830", 
        "lng": "56.3644", 
        "country": "United Arab Emirates", 
        "iso2": "AE", 
        "admin_name": "Ash Sh\u0101riqah", 
        "capital": "", 
        "population": "", 
        "population_proper": ""
    }, 
    {
        "city": "Wa\u2018bayn", 
        "lat": "25.5705", 
        "lng": "56.1354", 
        "country": "United Arab Emirates", 
        "iso2": "AE", 
        "admin_name": "Al Fujayrah", 
        "capital": "", 
        "population": "", 
        "population_proper": ""
    }, 
    {
        "city": "Al Qurayyah", 
        "lat": "25.2378", 
        "lng": "56.3613", 
        "country": "United Arab Emirates", 
        "iso2": "AE", 
        "admin_name": "Al Fujayrah", 
        "capital": "", 
        "population": "", 
        "population_proper": ""
    }, 
    {
        "city": "Al Man\u0101mah", 
        "lat": "25.3299", 
        "lng": "56.0219", 
        "country": "United Arab Emirates", 
        "iso2": "AE", 
        "admin_name": "Al Fujayrah", 
        "capital": "", 
        "population": "", 
        "population_proper": ""
    }, 
    {
        "city": "\u2018Ab\u0101dilah", 
        "lat": "25.4535", 
        "lng": "56.1899", 
        "country": "United Arab Emirates", 
        "iso2": "AE", 
        "admin_name": "Al Fujayrah", 
        "capital": "", 
        "population": "", 
        "population_proper": ""
    }, 
    {
        "city": "Al \u1e28al\u0101h", 
        "lat": "25.4774", 
        "lng": "56.1824", 
        "country": "United Arab Emirates", 
        "iso2": "AE", 
        "admin_name": "Al Fujayrah", 
        "capital": "", 
        "population": "", 
        "population_proper": ""
    }, 
    {
        "city": "Ghurfah", 
        "lat": "25.5977", 
        "lng": "56.2767", 
        "country": "United Arab Emirates", 
        "iso2": "AE", 
        "admin_name": "Al Fujayrah", 
        "capital": "", 
        "population": "", 
        "population_proper": ""
    }, 
    {
        "city": "\u1e28ayl", 
        "lat": "25.0922", 
        "lng": "56.2442", 
        "country": "United Arab Emirates", 
        "iso2": "AE", 
        "admin_name": "Al Fujayrah", 
        "capital": "", 
        "population": "", 
        "population_proper": ""
    }, 
    {
        "city": "Ghayl", 
        "lat": "25.0068", 
        "lng": "56.3329", 
        "country": "United Arab Emirates", 
        "iso2": "AE", 
        "admin_name": "Ash Sh\u0101riqah", 
        "capital": "", 
        "population": "", 
        "population_proper": ""
    }, 
    {
        "city": "Al Fuqait", 
        "lat": "25.5997", 
        "lng": "56.3425", 
        "country": "United Arab Emirates", 
        "iso2": "AE", 
        "admin_name": "Al Fujayrah", 
        "capital": "", 
        "population": "", 
        "population_proper": ""
    }, 
    {
        "city": "S\u0101\u2019if", 
        "lat": "25.1842", 
        "lng": "56.2421", 
        "country": "United Arab Emirates", 
        "iso2": "AE", 
        "admin_name": "Al Fujayrah", 
        "capital": "", 
        "population": "", 
        "population_proper": ""
    }, 
    {
        "city": "Bad\u012byah", 
        "lat": "25.4323", 
        "lng": "56.3457", 
        "country": "United Arab Emirates", 
        "iso2": "AE", 
        "admin_name": "Al Fujayrah", 
        "capital": "", 
        "population": "", 
        "population_proper": ""
    }, 
    {
        "city": "Far\u2018ah", 
        "lat": "25.1368", 
        "lng": "56.2373", 
        "country": "United Arab Emirates", 
        "iso2": "AE", 
        "admin_name": "Al Fujayrah", 
        "capital": "", 
        "population": "", 
        "population_proper": ""
    }, 
    {
        "city": "Mukhtaraqah", 
        "lat": "25.5409", 
        "lng": "56.1307", 
        "country": "United Arab Emirates", 
        "iso2": "AE", 
        "admin_name": "Al Fujayrah", 
        "capital": "", 
        "population": "", 
        "population_proper": ""
    }, 
    {
        "city": "Yalah", 
        "lat": "25.4152", 
        "lng": "56.1550", 
        "country": "United Arab Emirates", 
        "iso2": "AE", 
        "admin_name": "Al Fujayrah", 
        "capital": "", 
        "population": "", 
        "population_proper": ""
    }, 
    {
        "city": "\u0162ayyibah", 
        "lat": "25.4123", 
        "lng": "56.1707", 
        "country": "United Arab Emirates", 
        "iso2": "AE", 
        "admin_name": "Al Fujayrah", 
        "capital": "", 
        "population": "", 
        "population_proper": ""
    }, 
    {
        "city": "\u1e28\u0101rat Zu\u0163\u016b\u0163", 
        "lat": "25.6071", 
        "lng": "56.2957", 
        "country": "United Arab Emirates", 
        "iso2": "AE", 
        "admin_name": "Al Fujayrah", 
        "capital": "", 
        "population": "", 
        "population_proper": ""
    }, 
    {
        "city": "Khawr Kalb\u0101", 
        "lat": "25.0384", 
        "lng": "56.3626", 
        "country": "United Arab Emirates", 
        "iso2": "AE", 
        "admin_name": "Ash Sh\u0101riqah", 
        "capital": "", 
        "population": "", 
        "population_proper": ""
    }, 
    {
        "city": "Al \u2018Uyaynah", 
        "lat": "25.4528", 
        "lng": "56.1688", 
        "country": "United Arab Emirates", 
        "iso2": "AE", 
        "admin_name": "Al Fujayrah", 
        "capital": "", 
        "population": "", 
        "population_proper": ""
    }, 
    {
        "city": "R\u016bl \u1e10adn\u0101", 
        "lat": "25.5548", 
        "lng": "56.3455", 
        "country": "United Arab Emirates", 
        "iso2": "AE", 
        "admin_name": "Al Fujayrah", 
        "capital": "", 
        "population": "", 
        "population_proper": ""
    }, 
    {
        "city": "Murba\u1e29", 
        "lat": "25.2762", 
        "lng": "56.3626", 
        "country": "United Arab Emirates", 
        "iso2": "AE", 
        "admin_name": "Ash Sh\u0101riqah", 
        "capital": "", 
        "population": "", 
        "population_proper": ""
    }, 
    {
        "city": "Rughayl\u0101t", 
        "lat": "25.1055", 
        "lng": "56.3563", 
        "country": "United Arab Emirates", 
        "iso2": "AE", 
        "admin_name": "Al Fujayrah", 
        "capital": "", 
        "population": "", 
        "population_proper": ""
    }, 
    {
        "city": "Tawian", 
        "lat": "25.5568", 
        "lng": "56.0765", 
        "country": "United Arab Emirates", 
        "iso2": "AE", 
        "admin_name": "Al Fujayrah", 
        "capital": "", 
        "population": "", 
        "population_proper": ""
    }, 
    {
        "city": "Shaw\u012byah", 
        "lat": "25.2679", 
        "lng": "56.0815", 
        "country": "United Arab Emirates", 
        "iso2": "AE", 
        "admin_name": "Al Fujayrah", 
        "capital": "", 
        "population": "", 
        "population_proper": ""
    }, 
    {
        "city": "\u1e28arrah", 
        "lat": "24.9904", 
        "lng": "56.2167", 
        "country": "United Arab Emirates", 
        "iso2": "AE", 
        "admin_name": "Ash Sh\u0101riqah", 
        "capital": "", 
        "population": "", 
        "population_proper": ""
    }, 
    {
        "city": "Dib\u0101", 
        "lat": "25.6195", 
        "lng": "56.2729", 
        "country": "United Arab Emirates", 
        "iso2": "AE", 
        "admin_name": "Al Fujayrah", 
        "capital": "", 
        "population": "", 
        "population_proper": ""
    }, 
    {
        "city": "Bi\u0163nah", 
        "lat": "25.1895", 
        "lng": "56.2352", 
        "country": "United Arab Emirates", 
        "iso2": "AE", 
        "admin_name": "Al Fujayrah", 
        "capital": "", 
        "population": "", 
        "population_proper": ""
    }, 
    {
        "city": "Sinnah", 
        "lat": "25.5087", 
        "lng": "56.1677", 
        "country": "United Arab Emirates", 
        "iso2": "AE", 
        "admin_name": "Al Fujayrah", 
        "capital": "", 
        "population": "", 
        "population_proper": ""
    }, 
    {
        "city": "Riy\u0101mah", 
        "lat": "25.5456", 
        "lng": "56.0584", 
        "country": "United Arab Emirates", 
        "iso2": "AE", 
        "admin_name": "Al Fujayrah", 
        "capital": "", 
        "population": "", 
        "population_proper": ""
    }, 
    {
        "city": "D\u016bb", 
        "lat": "25.6130", 
        "lng": "56.2772", 
        "country": "United Arab Emirates", 
        "iso2": "AE", 
        "admin_name": "Al Fujayrah", 
        "capital": "", 
        "population": "", 
        "population_proper": ""
    }, 
    {
        "city": "Sram", 
        "lat": "25.4982", 
        "lng": "56.0572", 
        "country": "United Arab Emirates", 
        "iso2": "AE", 
        "admin_name": "Al Fujayrah", 
        "capital": "", 
        "population": "", 
        "population_proper": ""
    }, 
    {
        "city": "\u2018Asamah", 
        "lat": "25.3983", 
        "lng": "56.1507", 
        "country": "United Arab Emirates", 
        "iso2": "AE", 
        "admin_name": "Ra\u2019s al Khaymah", 
        "capital": "", 
        "population": "", 
        "population_proper": ""
    }, 
    {
        "city": "Al \u2018Ayn al Ghum\u016br", 
        "lat": "24.9595", 
        "lng": "56.3159", 
        "country": "United Arab Emirates", 
        "iso2": "AE", 
        "admin_name": "Ra\u2019s al Khaymah", 
        "capital": "", 
        "population": "", 
        "population_proper": ""
    }, 
    {
        "city": "Kalb\u0101", 
        "lat": "25.0746", 
        "lng": "56.3554", 
        "country": "United Arab Emirates", 
        "iso2": "AE", 
        "admin_name": "Ash Sh\u0101riqah", 
        "capital": "", 
        "population": "", 
        "population_proper": ""
    }, 
    {
        "city": "Wa\u1e29lah", 
        "lat": "24.9090", 
        "lng": "56.3032", 
        "country": "United Arab Emirates", 
        "iso2": "AE", 
        "admin_name": "Ra\u2019s al Khaymah", 
        "capital": "", 
        "population": "", 
        "population_proper": ""
    }, 
    {
        "city": "Thoban", 
        "lat": "25.3033", 
        "lng": "56.0279", 
        "country": "United Arab Emirates", 
        "iso2": "AE", 
        "admin_name": "Al Fujayrah", 
        "capital": "", 
        "population": "", 
        "population_proper": ""
    }, 
    {
        "city": "\u1e28afarah", 
        "lat": "25.0411", 
        "lng": "56.3149", 
        "country": "United Arab Emirates", 
        "iso2": "AE", 
        "admin_name": "Al Fujayrah", 
        "capital": "", 
        "population": "", 
        "population_proper": ""
    }, 
    {
        "city": "Al Gissemari", 
        "lat": "25.1434", 
        "lng": "56.2484", 
        "country": "United Arab Emirates", 
        "iso2": "AE", 
        "admin_name": "Al Fujayrah", 
        "capital": "", 
        "population": "", 
        "population_proper": ""
    }, 
    {
        "city": "\u1e28ay\u0101t", 
        "lat": "25.0581", 
        "lng": "56.3457", 
        "country": "United Arab Emirates", 
        "iso2": "AE", 
        "admin_name": "Ash Sh\u0101riqah", 
        "capital": "", 
        "population": "", 
        "population_proper": ""
    }, 
    {
        "city": "Khulayb\u012byah", 
        "lat": "25.3812", 
        "lng": "56.1736", 
        "country": "United Arab Emirates", 
        "iso2": "AE", 
        "admin_name": "Al Fujayrah", 
        "capital": "", 
        "population": "", 
        "population_proper": ""
    }, 
    {
        "city": "Z\u0327an\u1e29ah", 
        "lat": "25.5659", 
        "lng": "56.2022", 
        "country": "United Arab Emirates", 
        "iso2": "AE", 
        "admin_name": "Al Fujayrah", 
        "capital": "", 
        "population": "", 
        "population_proper": ""
    }, 
    {
        "city": "Saqamqam", 
        "lat": "25.1747", 
        "lng": "56.3304", 
        "country": "United Arab Emirates", 
        "iso2": "AE", 
        "admin_name": "Al Fujayrah", 
        "capital": "", 
        "population": "", 
        "population_proper": ""
    }, 
    {
        "city": "\u1e10\u0101hir", 
        "lat": "25.5334", 
        "lng": "56.1550", 
        "country": "United Arab Emirates", 
        "iso2": "AE", 
        "admin_name": "Al Fujayrah", 
        "capital": "", 
        "population": "", 
        "population_proper": ""
    }, 
    {
        "city": "Jareef", 
        "lat": "25.5142", 
        "lng": "56.0719", 
        "country": "United Arab Emirates", 
        "iso2": "AE", 
        "admin_name": "Al Fujayrah", 
        "capital": "", 
        "population": "", 
        "population_proper": ""
    }, 
    {
        "city": "Girath", 
        "lat": "25.2609", 
        "lng": "56.3543", 
        "country": "United Arab Emirates", 
        "iso2": "AE", 
        "admin_name": "Ash Sh\u0101riqah", 
        "capital": "", 
        "population": "", 
        "population_proper": ""
    }, 
    {
        "city": "Al Kub\u016bs", 
        "lat": "25.6015", 
        "lng": "56.3047", 
        "country": "United Arab Emirates", 
        "iso2": "AE", 
        "admin_name": "Al Fujayrah", 
        "capital": "", 
        "population": "", 
        "population_proper": ""
    }, 
    {
        "city": "\u2018Ashashah", 
        "lat": "25.4593", 
        "lng": "56.1640", 
        "country": "United Arab Emirates", 
        "iso2": "AE", 
        "admin_name": "Al Fujayrah", 
        "capital": "", 
        "population": "", 
        "population_proper": ""
    }, 
    {
        "city": "S\u012bj\u012b", 
        "lat": "25.2476", 
        "lng": "56.0772", 
        "country": "United Arab Emirates", 
        "iso2": "AE", 
        "admin_name": "Ra\u2019s al Khaymah", 
        "capital": "", 
        "population": "", 
        "population_proper": ""
    }, 
    {
        "city": "\u2018Aqqah", 
        "lat": "25.4987", 
        "lng": "56.3583", 
        "country": "United Arab Emirates", 
        "iso2": "AE", 
        "admin_name": "Al Fujayrah", 
        "capital": "", 
        "population": "", 
        "population_proper": ""
    }, 
    {
        "city": "Ras Dibba", 
        "lat": "25.6055", 
        "lng": "56.3050", 
        "country": "United Arab Emirates", 
        "iso2": "AE", 
        "admin_name": "Al Fujayrah", 
        "capital": "", 
        "population": "", 
        "population_proper": ""
    }, 
    {
        "city": "Nuhayy", 
        "lat": "25.2707", 
        "lng": "56.3624", 
        "country": "United Arab Emirates", 
        "iso2": "AE", 
        "admin_name": "Ash Sh\u0101riqah", 
        "capital": "", 
        "population": "", 
        "population_proper": ""
    }, 
    {
        "city": "\u1e10ab\u2018ah", 
        "lat": "25.4825", 
        "lng": "56.1387", 
        "country": "United Arab Emirates", 
        "iso2": "AE", 
        "admin_name": "Ra\u2019s al Khaymah", 
        "capital": "", 
        "population": "", 
        "population_proper": ""
    }, 
    {
        "city": "Murba\u1e11", 
        "lat": "25.3254", 
        "lng": "56.1331", 
        "country": "United Arab Emirates", 
        "iso2": "AE", 
        "admin_name": "Al Fujayrah", 
        "capital": "", 
        "population": "", 
        "population_proper": ""
    }, 
    {
        "city": "\u015eafad", 
        "lat": "25.2231", 
        "lng": "56.2994", 
        "country": "United Arab Emirates", 
        "iso2": "AE", 
        "admin_name": "Al Fujayrah", 
        "capital": "", 
        "population": "", 
        "population_proper": ""
    }, 
    {
        "city": "\u0162ar\u012bqat Ja\u2018d", 
        "lat": "25.5285", 
        "lng": "56.1514", 
        "country": "United Arab Emirates", 
        "iso2": "AE", 
        "admin_name": "Al Fujayrah", 
        "capital": "", 
        "population": "", 
        "population_proper": ""
    }, 
    {
        "city": "Mawrid", 
        "lat": "25.4287", 
        "lng": "56.1146", 
        "country": "United Arab Emirates", 
        "iso2": "AE", 
        "admin_name": "Ra\u2019s al Khaymah", 
        "capital": "", 
        "population": "", 
        "population_proper": ""
    }, 
    {
        "city": "\u0162ar\u012bf Kalb\u0101", 
        "lat": "25.0695", 
        "lng": "56.3312", 
        "country": "United Arab Emirates", 
        "iso2": "AE", 
        "admin_name": "Al Fujayrah", 
        "capital": "", 
        "population": "", 
        "population_proper": ""
    }
]