[
    {
        "city": "Riyadh", 
        "lat": "24.6500", 
        "lng": "46.7100", 
        "country": "Saudi Arabia", 
        "iso2": "SA", 
        "admin_name": "Ar Riy\u0101\u1e11", 
        "capital": "primary", 
        "population": "6881000", 
        "population_proper": "6694000"
    }, 
    {
        "city": "Jeddah", 
        "lat": "21.5428", 
        "lng": "39.1728", 
        "country": "Saudi Arabia", 
        "iso2": "SA", 
        "admin_name": "Makkah al Mukarramah", 
        "capital": "", 
        "population": "3976000", 
        "population_proper": "3976000"
    }, 
    {
        "city": "Mecca", 
        "lat": "21.4225", 
        "lng": "39.8261", 
        "country": "Saudi Arabia", 
        "iso2": "SA", 
        "admin_name": "Makkah al Mukarramah", 
        "capital": "admin", 
        "population": "1700000", 
        "population_proper": "1700000"
    }, 
    {
        "city": "Medina", 
        "lat": "24.4667", 
        "lng": "39.6000", 
        "country": "Saudi Arabia", 
        "iso2": "SA", 
        "admin_name": "Al Mad\u012bnah al Munawwarah", 
        "capital": "admin", 
        "population": "1180770", 
        "population_proper": "1180770"
    }, 
    {
        "city": "Ad Damm\u0101m", 
        "lat": "26.4333", 
        "lng": "50.1000", 
        "country": "Saudi Arabia", 
        "iso2": "SA", 
        "admin_name": "Ash Sharq\u012byah", 
        "capital": "admin", 
        "population": "903312", 
        "population_proper": "903312"
    }, 
    {
        "city": "Al Huf\u016bf", 
        "lat": "25.3608", 
        "lng": "49.5997", 
        "country": "Saudi Arabia", 
        "iso2": "SA", 
        "admin_name": "Ash Sharq\u012byah", 
        "capital": "", 
        "population": "637389", 
        "population_proper": "400000"
    }, 
    {
        "city": "Buraydah", 
        "lat": "26.3333", 
        "lng": "43.9667", 
        "country": "Saudi Arabia", 
        "iso2": "SA", 
        "admin_name": "Al Qa\u015f\u012bm", 
        "capital": "admin", 
        "population": "614093", 
        "population_proper": "614093"
    }, 
    {
        "city": "Al \u1e28illah", 
        "lat": "23.4895", 
        "lng": "46.7564", 
        "country": "Saudi Arabia", 
        "iso2": "SA", 
        "admin_name": "Ar Riy\u0101\u1e11", 
        "capital": "", 
        "population": "594605", 
        "population_proper": "594605"
    }, 
    {
        "city": "A\u0163 \u0162\u0101\u2019if", 
        "lat": "21.2667", 
        "lng": "40.4167", 
        "country": "Saudi Arabia", 
        "iso2": "SA", 
        "admin_name": "Makkah al Mukarramah", 
        "capital": "", 
        "population": "579970", 
        "population_proper": "579970"
    }, 
    {
        "city": "Tab\u016bk", 
        "lat": "28.3972", 
        "lng": "36.5789", 
        "country": "Saudi Arabia", 
        "iso2": "SA", 
        "admin_name": "Tab\u016bk", 
        "capital": "admin", 
        "population": "512629", 
        "population_proper": "512629"
    }, 
    {
        "city": "Kham\u012bs Mushay\u0163", 
        "lat": "18.3000", 
        "lng": "42.7333", 
        "country": "Saudi Arabia", 
        "iso2": "SA", 
        "admin_name": "\u2018As\u012br", 
        "capital": "", 
        "population": "430828", 
        "population_proper": "430828"
    }, 
    {
        "city": "\u1e28\u0101\u2019il", 
        "lat": "27.5236", 
        "lng": "41.7001", 
        "country": "Saudi Arabia", 
        "iso2": "SA", 
        "admin_name": "\u1e28\u0101\u2019il", 
        "capital": "admin", 
        "population": "385257", 
        "population_proper": "385257"
    }, 
    {
        "city": "Al Qa\u0163\u012bf", 
        "lat": "26.5196", 
        "lng": "50.0115", 
        "country": "Saudi Arabia", 
        "iso2": "SA", 
        "admin_name": "Ash Sharq\u012byah", 
        "capital": "", 
        "population": "368892", 
        "population_proper": "98259"
    }, 
    {
        "city": "Al Mubarraz", 
        "lat": "25.4416", 
        "lng": "49.6642", 
        "country": "Saudi Arabia", 
        "iso2": "SA", 
        "admin_name": "Ash Sharq\u012byah", 
        "capital": "", 
        "population": "298562", 
        "population_proper": "290802"
    }, 
    {
        "city": "Al Kharj", 
        "lat": "24.1556", 
        "lng": "47.3120", 
        "country": "Saudi Arabia", 
        "iso2": "SA", 
        "admin_name": "Ar Riy\u0101\u1e11", 
        "capital": "", 
        "population": "298428", 
        "population_proper": "298428"
    }, 
    {
        "city": "Najr\u0101n", 
        "lat": "17.4917", 
        "lng": "44.1322", 
        "country": "Saudi Arabia", 
        "iso2": "SA", 
        "admin_name": "Najr\u0101n", 
        "capital": "admin", 
        "population": "298288", 
        "population_proper": "298288"
    }, 
    {
        "city": "Abh\u0101", 
        "lat": "18.2167", 
        "lng": "42.5000", 
        "country": "Saudi Arabia", 
        "iso2": "SA", 
        "admin_name": "\u2018As\u012br", 
        "capital": "admin", 
        "population": "236157", 
        "population_proper": "236157"
    }, 
    {
        "city": "\u2018Ar\u2018ar", 
        "lat": "30.9833", 
        "lng": "41.0167", 
        "country": "Saudi Arabia", 
        "iso2": "SA", 
        "admin_name": "Al \u1e28ud\u016bd ash Sham\u0101l\u012byah", 
        "capital": "admin", 
        "population": "167057", 
        "population_proper": "167057"
    }, 
    {
        "city": "Sak\u0101k\u0101", 
        "lat": "30.0000", 
        "lng": "40.1333", 
        "country": "Saudi Arabia", 
        "iso2": "SA", 
        "admin_name": "Al Jawf", 
        "capital": "admin", 
        "population": "128332", 
        "population_proper": "128332"
    }, 
    {
        "city": "J\u0101z\u0101n", 
        "lat": "16.8892", 
        "lng": "42.5611", 
        "country": "Saudi Arabia", 
        "iso2": "SA", 
        "admin_name": "J\u0101z\u0101n", 
        "capital": "admin", 
        "population": "127743", 
        "population_proper": "127743"
    }, 
    {
        "city": "Al B\u0101\u1e29ah", 
        "lat": "20.0129", 
        "lng": "41.4677", 
        "country": "Saudi Arabia", 
        "iso2": "SA", 
        "admin_name": "Al B\u0101\u1e29ah", 
        "capital": "admin", 
        "population": "95089", 
        "population_proper": "95089"
    }
]